{
  "places": [
    {
      "name": "Golden Gate Bridge",
      "lat": 37.8199,
      "lng": -122.4783,
      "description": "A famous suspension bridge in San Francisco."
    },
    {
      "name": "Alcatraz Island",
      "lat": 37.8267,
      "lng": -122.423,
      "description": "Historic island with a former prison."
    },
    {
      "name": "Aasee Bocholt",
      "lat": 51.83164049985181,
      "lng": 6.632480621337891,
      "description": "Nice place, biatch"
    },
    {
      "name": "Pensi",
      "lat": 56.30434864830834,
      "lng": 4.240722656250001,
      "description": "pensi, jes."
    }
  ],
  "shops": [
    {
      "name": "Grey Area",
      "city": "Amsterdam",
      "lat": 52.3628,
      "lng": 4.8907,
      "description": "Small award‑winning shop in Amsterdam, focused on top genetics."
    },
    {
      "name": "La Tertulia",
      "city": "Amsterdam",
      "lat": 52.374,
      "lng": 4.881,
      "description": "Atmospheric Jordaan coffeeshop with terrace and botanical decor."
    },
    {
      "name": "Mr. K and Co",
      "city": "Amsterdam",
      "lat": 52.3655,
      "lng": 4.8835,
      "description": "Stylish two‑story café near Leidseplein, known for high‑quality strains."
    },
    {
      "name": "The Bulldog The First",
      "city": "Amsterdam",
      "lat": 52.374,
      "lng": 4.893,
      "description": "Historic pioneer coffeeshop in the Red Light District."
    },
    {
      "name": "Boerejongens Center",
      "city": "Amsterdam",
      "lat": 52.366,
      "lng": 4.8965,
      "description": "Premium coffeeshop at Rembrandtplein with restaurant‑style lounge."
    },
    {
      "name": "Coffeeshop The Reef",
      "city": "Rotterdam",
      "lat": 51.9225,
      "lng": 4.482,
      "description": "Underwater‑themed Rotterdam shop with cosy lounge and wide product range."
    },
    {
      "name": "Coffeeshop 't Trefpunt",
      "city": "Rotterdam",
      "lat": 51.922,
      "lng": 4.48,
      "description": "Central Rotterdam meeting place, board games and varied menu."
    },
    {
      "name": "Coffeeshop Amigo",
      "city": "Rotterdam",
      "lat": 51.906,
      "lng": 4.4815,
      "description": "Homely décor near Euromast, with pool tables and friendly vibe."
    },
    {
      "name": "Mon Camarade",
      "city": "Rotterdam",
      "lat": 51.914,
      "lng": 4.472,
      "description": "Rotterdam OG famous for strong American strains."
    },
    {
      "name": "Toermalijn",
      "city": "Tilburg",
      "lat": 51.555,
      "lng": 5.091,
      "description": "Award‑winning Tilburg shop (best in south, 2022) with garden lounge."
    },
    {
      "name": "The Grass Company",
      "city": "Tilburg",
      "lat": 51.556,
      "lng": 5.088,
      "description": "Large lounge, restaurant style, board games and drinks."
    },
    {
      "name": "Sensi Shop",
      "city": "Winterswijk",
      "lat": 51.958,
      "lng": 6.614,
      "description": "Licensed coffeeshop in Winterswijk near the German border."
    }
  ]
}